location,lat,lon
Chattanooga,35.0456,-85.3097
Cleveland,35.1595,-84.8766
Dalton,34.7698,-84.9702
Scottsboro,34.6723,-86.0347
Winchester,35.1859,-86.1125
Athens,35.4420,-84.5924
Fort Payne,34.4443,-85.7191
Dayton,35.4931,-85.0124
Jasper,35.0717,-85.6272
Ringgold,34.9151,-85.1091
